City_ID,City,Country,Max Temp,Current Description,Lat,Lng,Hotel Name
6,Port Blair,IN,78.84,mist,11.6667,92.75,"Welcomhotel By ITC Hotels, Bay Island, Port Blair"
10,Isangel,VU,80.71,broken clouds,-19.55,169.2667,Tanna Lodge
13,Campoverde,PE,87.49,overcast clouds,-8.4753,-74.8058,Hospedaje Coral's
19,Meulaboh,ID,76.93,light rain,4.1363,96.1285,Kost Pria
22,Benjamin Constant,BR,87.93,scattered clouds,-4.3831,-70.0311,CASA AVALIADA
31,Butaritari,KI,82.22,overcast clouds,3.0707,172.7902,Isles Sunset Lodge
33,Camargo,MX,84.65,few clouds,27.6667,-105.1667,Hotel Santa Fe
34,Bengkulu,ID,75.29,light rain,-3.8004,102.2655,Grage Hotel Bengkulu
37,Port Charlotte,US,82.18,overcast clouds,26.9762,-82.0906,Knights Inn Port Charlotte
38,Atuona,PF,77.0,few clouds,-9.8,-139.0333,Villa Enata
42,Winfield,US,84.29,clear sky,37.2398,-96.9956,Blue Way Inn & Suites Winfield
48,El Roble,CO,83.64,overcast clouds,9.1019,-75.1951,Los Frailes
51,Sinnamary,GF,80.31,few clouds,5.3833,-52.95,ALETHEIA Appartement Sinnamary
59,Hithadhoo,MV,81.12,overcast clouds,-0.6,73.0833,Scoop Guest House
60,Kalaikunda,IN,79.32,overcast clouds,22.35,87.25,Hotel Capsicum
66,Chabahar,IR,80.31,clear sky,25.2919,60.643,هتل گدروشیا
67,Kununurra,AU,75.18,overcast clouds,-15.7667,128.7333,Hotel Kununurra
70,Pasighat,IN,75.29,clear sky,28.0667,95.3333,Siang Guest House
74,Garowe,SO,77.61,broken clouds,8.4054,48.4845,Curubo Hotel
76,Puerto Ayora,EC,76.96,overcast clouds,-0.7393,-90.3518,Finch Bay Galapagos Hotel
82,San Ramon,US,80.29,clear sky,37.7799,-121.978,San Ramon Marriott
85,Banda Aceh,ID,78.48,overcast clouds,5.5577,95.3222,OYO 884 Rumoh PMI Hotel
86,Portland,US,86.56,clear sky,45.5234,-122.6762,Embassy Suites by Hilton Portland Downtown
92,Catuday,PH,78.1,scattered clouds,16.2923,119.8062,Benjie's Kubo & Cottages
99,Puerto Carreno,CO,87.78,scattered clouds,6.189,-67.4859,Casa Hotel Victoria
102,Vaini,TO,77.16,broken clouds,-21.2,-175.2,Keleti Beach Resort
103,Morehead,US,77.86,clear sky,37.2711,-87.1764,CCI Express Inn
104,Kokoda,PG,80.24,scattered clouds,-8.8785,147.7407,Daito Guest House
106,Winneba,GH,75.25,scattered clouds,5.3511,-0.6231,Windy Lodge & Beach Resort
108,Teacapan,MX,85.35,overcast clouds,22.55,-105.75,Hotel los Mangos
109,Jennings,US,77.14,clear sky,38.7192,-90.2604,First Western Inn
110,Georgetown,MY,76.95,few clouds,5.4112,100.3354,Cititel Penang
112,Lorengau,PG,82.22,few clouds,-2.0226,147.2712,Lorengau Harbourside Hotel
122,Kavaratti,IN,81.1,overcast clouds,10.5669,72.642,Green leaf
124,San Cristobal,VE,75.38,scattered clouds,7.7669,-72.225,Pirineos
133,Itoman,JP,78.82,few clouds,26.1247,127.6694,Southern Beach Hotel & Resort Okinawa
135,Cayenne,GF,84.24,clear sky,4.9333,-52.3333,Hôtel Le Dronmi
136,Kavieng,PG,82.54,light rain,-2.5744,150.7967,Nusa Island Retreat
140,Lake City,US,83.91,clear sky,30.1897,-82.6393,Ramada Limited Lake City
143,Kapaa,US,84.18,clear sky,22.0752,-159.319,Sheraton Kauai Coconut Beach Resort
145,Nabire,ID,76.1,overcast clouds,-3.3667,135.4833,Hotel Nusantara I
147,Udon Thani,TH,75.11,broken clouds,17.3333,102.8333,P.T.K. Apartment
148,Houston,US,88.0,clear sky,29.7633,-95.3633,"Hotel ICON, Autograph Collection"
155,Kutum,SD,80.92,scattered clouds,14.2,24.6667,Dibbo areaمنطقة دبو
157,Atar,MR,83.37,clear sky,20.5169,-13.0499,Oumou Elghoura
159,San Jose De Guanipa,VE,81.79,overcast clouds,8.8872,-64.1651,Hotel Kariña Guanipa
163,Robertson,US,76.69,haze,36.5167,-86.8667,Hampton Inn Springfield
164,Matay,EG,82.83,clear sky,28.419,30.7792,Nag Aespen
166,Haapiti,PF,80.33,scattered clouds,-17.5667,-149.8667,Linareva Moorea Beach Resort
167,Kroya,ID,76.03,overcast clouds,-7.6331,109.2461,Wisma Legoq Kost
175,Soyo,AO,75.38,broken clouds,-6.1349,12.3689,Hospedaria ndozi'ame
187,Sibolga,ID,75.24,overcast clouds,1.7427,98.7792,Hotel Syariah CN Darussalam
200,Cockburn Town,TC,82.87,broken clouds,21.4612,-71.1419,Osprey Beach Hotel
201,Abu Dhabi,AE,86.11,clear sky,24.4667,54.3667,Beach Rotana
210,Kulhudhuffushi,MV,79.47,overcast clouds,6.6221,73.07,Haajy Guest House 1
211,San Policarpo,PH,81.81,broken clouds,12.1791,125.5072,Agapita M. Nicart
213,Kirakira,SB,83.55,scattered clouds,-10.4544,161.9205,SanBiz Lodge
214,Danjiangkou,CN,75.97,scattered clouds,32.5428,111.5086,Dongsheng Guesthouse
216,The Valley,AI,84.34,few clouds,18.217,-63.0578,CeBlue Villas & Beach Resort
217,Tongling,CN,78.87,clear sky,30.95,117.7833,Huoxian Hotel
219,Salinopolis,BR,80.08,overcast clouds,-0.6136,-47.3561,Salinas Park Resort Maçarico AP101
220,Darnah,LY,85.06,clear sky,32.767,22.6367,فندق الفردوس
225,Jibuti,DJ,81.64,scattered clouds,11.5,42.5,Orchid Main Camp Goubet
226,Kankon,IN,76.8,broken clouds,15.0167,74.0167,Palolem Beach Resort
227,Benghazi,LY,87.24,clear sky,32.1167,20.0667,Tibesti Hotel
230,Kaura Namoda,NG,79.81,broken clouds,12.5898,6.5779,Moonlight Hotel
231,Rongcheng,CN,77.79,clear sky,30.634,117.8517,Shell Shandong Liaocheng Development District South Huangshan Road Hotel
232,Bairiki,KI,84.2,broken clouds,1.3292,172.9752,Tarawa Boutique Hotel
233,Bardiyah,LY,81.3,clear sky,31.7561,25.0865,بورتو بردية
237,Tabou,CI,75.69,light rain,4.423,-7.3528,hotêl doufoulougou
240,Olinda,BR,78.53,scattered clouds,-8.0089,-34.8553,Flat Quatro Rodas Olinda
242,Cravo Norte,CO,82.26,light rain,6.3017,-70.2041,Hotel Potosí Los Mirtos
245,Avarua,CK,77.05,overcast clouds,-21.2078,-159.775,Paradise Inn
249,Faanui,PF,78.33,scattered clouds,-16.4833,-151.75,Bora-Bora Pearl Beach Resort & Spa
251,Dingle,PH,76.26,heavy intensity rain,10.9995,122.6711,SEGAYA PROPERTY
255,Harper,LR,76.23,light rain,4.375,-7.7169,Screensaver
256,Kismayo,SO,75.88,overcast clouds,-0.3582,42.5454,Agan-Hotel
257,Giyani,ZA,76.26,clear sky,-23.3025,30.7187,Kulani Country Lodge
262,Miraflores,MX,77.04,overcast clouds,19.2167,-98.8083,Hotel Mansión
270,Independence,US,79.29,clear sky,39.0911,-94.4155,Higher Ground Hotel
276,Hobyo,SO,76.01,broken clouds,5.3505,48.5268,Halane Hotel and Restaurent
277,Nagarote,NI,85.68,overcast clouds,12.2659,-86.5647,Hospedaje Nagarote
279,Alice Town,BS,79.88,clear sky,25.7167,-79.3,Bimini Big Game Club Resort & Marina
284,Ahuimanu,US,86.76,few clouds,21.4447,-157.8378,Paradise Bay Resort
287,San Ramon De La Nueva Oran,AR,82.42,few clouds,-23.1322,-64.326,Hotel Residencial Centro
293,Karwar,IN,75.96,overcast clouds,14.8,74.1333,Netalco Connects
294,Tezu,IN,76.15,broken clouds,27.9167,96.1667,Circuit House
297,Wajir,KE,76.53,few clouds,1.7471,40.0573,Mahatallah Hotel
298,Sao Filipe,CV,78.73,few clouds,14.8961,-24.4956,Hotel Xaguate
302,Williams Lake,CA,78.06,few clouds,52.1415,-122.1445,Stampeder Motel
303,Alta Floresta,BR,86.9,broken clouds,-9.8756,-56.0861,Floresta Amazonica Hotel
305,Redmond,US,81.73,clear sky,47.674,-122.1215,Seattle Marriott Redmond
307,Nieuw Amsterdam,SR,87.82,few clouds,5.8833,-55.0833,Hotel Stardust
308,Yining,CN,75.7,clear sky,29.0361,114.5636,Xiushui Hotel
311,Biltine,TD,88.39,scattered clouds,14.5333,20.9167,Hôtel Trois Étoiles de Biltine
321,Eureka,US,79.18,overcast clouds,40.8021,-124.1637,Eureka Inn Trademark By Wyndham
325,Nizwa,OM,78.12,clear sky,22.9333,57.5333,Orient Apartments
330,Penalva,BR,79.9,broken clouds,-3.2942,-45.1736,Hotel Lago Verde
334,Veraval,IN,79.45,clear sky,20.9,70.3667,Lords Inn Somnath
335,Hambantota,LK,77.34,scattered clouds,6.1241,81.1185,Bungalow 63
337,Manokwari,ID,79.36,broken clouds,-0.8667,134.0833,Swiss Belhotel Manokwari
339,Miramar,US,83.01,broken clouds,25.9873,-80.2323,Stadium Hotel
342,Praia,CV,78.48,scattered clouds,14.9215,-23.5087,LT Aparthotel
351,Lufilufi,WS,79.79,scattered clouds,-13.8745,-171.5986,Leuaina Beach Resort and Spa
352,Rajapur,IN,79.39,broken clouds,25.3833,81.15,Sahu Ji Galla Mills
357,Pochutla,MX,83.82,broken clouds,15.7432,-96.4661,Hotel Posada San Jose
360,Samana,DO,78.46,overcast clouds,19.2056,-69.3369,The Bannister - Hotel & Yacht Club
361,Gat,IL,80.4,clear sky,31.61,34.7642,OlusHome
378,Vanimo,PG,78.24,scattered clouds,-2.6741,141.3028,Vahmoneh Lodge Vanimo
396,Fortuna,US,78.91,overcast clouds,40.5982,-124.1573,Super 8 by Wyndham Fortuna
397,Mutata,CO,77.18,overcast clouds,7.2441,-76.4356,RESIDENCIA ZULIMA
398,Anito,PH,79.32,overcast clouds,12.4497,125.2886,El Felix Cottages
399,Ambon,ID,77.14,scattered clouds,-3.6954,128.1814,Swiss-Belhotel Ambon
400,Saint George,US,89.44,clear sky,37.1041,-113.5841,Best Western Plus Abbey Inn
403,Atsipopoulon,GR,80.08,clear sky,35.35,24.4333,Thalassa Boutique Hotel
404,Khanpur,PK,82.08,clear sky,28.6453,70.6567,Ahmad Bartan store
406,Kant,IN,76.24,clear sky,27.8,79.8,Sumit Verma
412,Pedasi,PA,78.06,overcast clouds,7.5333,-80.0333,Hotel Casa de Campo Pedasí
414,Grand-Santi,GF,85.33,broken clouds,4.25,-54.3833,Hotel La Villa Couacou
423,Ciudad Bolivar,VE,84.25,overcast clouds,8.1222,-63.5497,Hotel Edi
426,Boa Vista,BR,79.79,broken clouds,2.8197,-60.6733,Aipana Plaza Hotel
430,Dhidhdhoo,MV,80.37,overcast clouds,6.8833,73.1,Dhidhoo beach
432,Buala,SB,83.64,light rain,-8.145,159.5921,Maringe Lagoon Lodge
434,Cabedelo,BR,75.94,few clouds,-6.9811,-34.8339,Pousada Camboinha
439,Sola,VU,79.97,broken clouds,-13.8833,167.55,Leumerus Bungalows
440,Iracoubo,GF,80.51,few clouds,5.4802,-53.2011,Le Gîte d’Iracoubo
441,Kihei,US,86.97,few clouds,20.785,-156.4656,Maui Sunset
442,Pemangkat,ID,77.47,light rain,1.1667,108.9667,Hotel Duyung Permai 2
444,Puerto Maldonado,PE,83.35,few clouds,-12.6,-69.1833,Wasai Hotel
447,Aracati,BR,78.53,few clouds,-4.5617,-37.7697,Hostel Pousada Ibiza
451,Mamallapuram,IN,84.25,overcast clouds,12.6264,80.1722,Radisson Blu Resort Temple Bay Mamallapuram
452,Auburndale,US,83.93,scattered clouds,28.0653,-81.7887,Best Western Auburndale Inn & Suites
453,San Pedro,PH,79.32,few clouds,14.35,121.0167,Palines Apartment and Guesthouse
460,Dicabisagan,PH,77.65,moderate rain,17.0818,122.4157,Nancy Montanes Bernardo
461,Voh,NC,76.37,broken clouds,-20.9667,164.7,Le gîte du Koniambo
462,Elizabeth City,US,76.05,few clouds,36.2946,-76.2511,Hampton Inn Elizabeth City
467,Victoria,HK,83.32,few clouds,22.2855,114.1577,Mini Central
469,Ternate,ID,80.8,broken clouds,0.8,127.4,Sahid Bela Ternate Hotel
470,San Patricio,US,88.16,clear sky,28.017,-97.5169,"Motel 6 Sinton, TX"
481,Waingapu,ID,78.57,scattered clouds,-9.6567,120.2641,Pondok Wisata Elim
482,Port-Gentil,GA,75.16,scattered clouds,-0.7193,8.7815,Fengshui Residence
483,Bud,US,75.67,clear sky,39.447,-86.1758,Ted McQuinn Trust
489,Kuala Terengganu,MY,78.21,overcast clouds,5.3302,103.1408,Hotel Grand Continental Kuala Terengganu (4 Star)
496,Wilmington Island,US,81.99,clear sky,32.0036,-80.9737,Breezeway Studio Manor LLC
498,Lamar,US,82.63,clear sky,33.6668,-95.5836,Kings Inn Paris TX
501,Bathsheba,BB,83.01,scattered clouds,13.2167,-59.5167,Atlantis Hotel
502,Savannah Bight,HN,82.99,overcast clouds,16.45,-85.85,Villa on Dunbar Rock
506,Muisne,EC,75.18,broken clouds,0.6,-80.0333,Quinta Samay
511,Buchanan,LR,75.78,light rain,5.8808,-10.0467,Kamaneahn Hotel Inc
517,Espanola,US,81.59,few clouds,35.9911,-106.0806,Santa Claran Hotel Casino
519,Kudahuvadhoo,MV,81.61,overcast clouds,2.6708,72.8944,Niyama Private Islands Maldives
524,Tallahassee,US,86.09,clear sky,30.4383,-84.2807,Four Points by Sheraton Tallahassee Downtown
530,Buluang,PH,76.68,moderate rain,13.3068,123.3425,Sacueza Beach Resort
532,Sur,OM,81.52,clear sky,22.5667,59.5289,Sur Plaza Hotel
535,Les Cayes,HT,80.06,overcast clouds,18.2,-73.75,Villa Orphee
536,Tual,ID,82.42,overcast clouds,-5.6667,132.75,Grand Vilia Hotel
537,Erzin,TR,75.24,clear sky,36.9559,36.2,Artemis Otel
540,Jaswantnagar,IN,78.58,clear sky,26.8786,78.9028,Shree hari electronics and mobile repair senter
541,Tessaoua,NE,85.15,clear sky,13.7574,7.9874,Benin Dan Kaabou Heberge
543,Sabang,ID,81.03,overcast clouds,5.8933,95.3214,Hotel Citra
546,Alofi,NU,75.7,scattered clouds,-19.0595,-169.9187,Taloa Heights
551,Canutama,BR,84.78,overcast clouds,-6.5339,-64.3831,Endereço Atual- Mauricio da Silva Lima
553,Kilvelur,IN,76.39,overcast clouds,10.7672,79.7419,"Vee. S. Lodge,"
558,Laem Sing,TH,82.02,moderate rain,12.4816,102.0738,Laem Sing Whitehouse Resort
568,Salalah,OM,80.69,broken clouds,17.0151,54.0924,"HAMDAN PLAZA HOTEL SALALAH, an HTG Hotel"
569,Dunga Bunga,PK,80.46,clear sky,29.7493,73.2432,Karachi baryani and nasta point
570,La Asuncion,VE,81.9,overcast clouds,11.0333,-63.8628,Colinas de Matasiete
573,Port Saint Lucie,US,81.03,overcast clouds,27.2939,-80.3503,Best Western Port St. Lucie
578,Poso,ID,75.76,overcast clouds,-1.3959,120.7524,Hotel 77 Poso
580,Awbari,LY,86.52,clear sky,26.5921,12.7805,استراحة الشارب العائلي
581,Vieques,PR,84.49,overcast clouds,18.425,-65.8329,"The St. Regis Bahia Beach Resort, Puerto Rico"
585,Bambanglipuro,ID,76.8,overcast clouds,-7.95,110.2833,Puri Brata
586,Half Moon Bay,US,79.57,overcast clouds,37.4636,-122.4286,"The Ritz-Carlton, Half Moon Bay"
589,Gizo,SB,82.74,light rain,-8.103,156.8419,Imagination Island
